[
  {
    "name": "Baalbek",
    "lat": 34.007,
    "lon": 36.204,
    "region": "Levant",
    "masonry": 4,
    "max_tons": 1000,
    "mohs": 3,
    "precision": 3,
    "rock_cut": false,
    "transport_km": 1,
    "notes": "Trilithon 800t blocks precision-cut, fitted into wall. Ashlar coursework."
  },
  {
    "name": "Western Stone (Temple Mount)",
    "lat": 31.777,
    "lon": 35.235,
    "region": "Levant",
    "masonry": 4,
    "max_tons": 517,
    "mohs": 5,
    "precision": 3,
    "rock_cut": false,
    "transport_km": 5,
    "notes": "517t limestone ashlar block. Herodian precision."
  },
  {
    "name": "Petra",
    "lat": 30.329,
    "lon": 35.444,
    "region": "Levant",
    "masonry": 4,
    "max_tons": 0,
    "mohs": 4,
    "precision": 3,
    "rock_cut": true,
    "transport_km": 0,
    "notes": "Rock-cut facades with ashlar-quality carved surfaces."
  },
  {
    "name": "Masada",
    "lat": 31.316,
    "lon": 35.354,
    "region": "Levant",
    "masonry": 4,
    "max_tons": 10,
    "mohs": 5,
    "precision": 2,
    "rock_cut": false,
    "transport_km": 1,
    "notes": "Herodian ashlar fortress."
  },
  {
    "name": "Sacsayhuaman",
    "lat": -13.509,
    "lon": -71.982,
    "region": "Peru",
    "masonry": 3,
    "max_tons": 120,
    "mohs": 7,
    "precision": 4,
    "rock_cut": false,
    "transport_km": 5,
    "notes": "Polygonal diorite 120t, razor-tight joints. No mortar."
  },
  {
    "name": "Ollantaytambo",
    "lat": -13.258,
    "lon": -72.263,
    "region": "Peru",
    "masonry": 3,
    "max_tons": 50,
    "mohs": 6,
    "precision": 4,
    "rock_cut": false,
    "transport_km": 6,
    "notes": "Polygonal porphyry 50t. Quarry across valley."
  },
  {
    "name": "Machu Picchu",
    "lat": -13.163,
    "lon": -72.545,
    "region": "Peru",
    "masonry": 3,
    "max_tons": 20,
    "mohs": 6,
    "precision": 3,
    "rock_cut": false,
    "transport_km": 2,
    "notes": "Polygonal and ashlar granite walls. Dry-stone."
  },
  {
    "name": "Nazca Lines",
    "lat": -14.735,
    "lon": -75.13,
    "region": "Peru",
    "masonry": 0,
    "max_tons": 0,
    "mohs": 0,
    "precision": 0,
    "rock_cut": false,
    "transport_km": 0,
    "notes": "Geoglyphs. Not stone construction."
  },
  {
    "name": "Caral",
    "lat": -10.893,
    "lon": -77.521,
    "region": "Peru",
    "masonry": 1,
    "max_tons": 5,
    "mohs": 3,
    "precision": 1,
    "rock_cut": false,
    "transport_km": 2,
    "notes": "Oldest Americas city. Rough stone and adobe."
  },
  {
    "name": "Chavin de Huantar",
    "lat": -9.595,
    "lon": -77.178,
    "region": "Peru",
    "masonry": 2,
    "max_tons": 10,
    "mohs": 5,
    "precision": 2,
    "rock_cut": false,
    "transport_km": 10,
    "notes": "Pre-Inca temple. Cyclopean walls with fitted blocks."
  },
  {
    "name": "Choquequirao",
    "lat": -13.395,
    "lon": -72.872,
    "region": "Peru",
    "masonry": 3,
    "max_tons": 10,
    "mohs": 5,
    "precision": 3,
    "rock_cut": false,
    "transport_km": 2,
    "notes": "Inca polygonal masonry similar to Machu Picchu."
  },
  {
    "name": "Kuelap",
    "lat": -6.418,
    "lon": -77.923,
    "region": "Peru",
    "masonry": 2,
    "max_tons": 15,
    "mohs": 5,
    "precision": 2,
    "rock_cut": false,
    "transport_km": 2,
    "notes": "Chachapoya fortress. Cyclopean walls 20m high."
  },
  {
    "name": "Tiwanaku",
    "lat": -16.555,
    "lon": -68.673,
    "region": "Bolivia",
    "masonry": 4,
    "max_tons": 40,
    "mohs": 5,
    "precision": 3,
    "rock_cut": false,
    "transport_km": 10,
    "notes": "Gate of the Sun monolithic. Ashlar-quality cut blocks."
  },
  {
    "name": "Puma Punku",
    "lat": -16.562,
    "lon": -68.68,
    "region": "Bolivia",
    "masonry": 4,
    "max_tons": 130,
    "mohs": 7,
    "precision": 4,
    "rock_cut": false,
    "transport_km": 50,
    "notes": "Ashlar andesite H-blocks, sub-mm interlocking joints. 130t."
  },
  {
    "name": "Giza Plateau",
    "lat": 29.925,
    "lon": 31.175,
    "region": "Egypt",
    "masonry": 4,
    "max_tons": 80,
    "mohs": 7,
    "precision": 4,
    "rock_cut": false,
    "transport_km": 800,
    "notes": "Ashlar granite beams 80t at 60m. Serapeum 0.02mm tolerance."
  },
  {
    "name": "Abydos (Osirion)",
    "lat": 26.185,
    "lon": 31.919,
    "region": "Egypt",
    "masonry": 4,
    "max_tons": 60,
    "mohs": 7,
    "precision": 3,
    "rock_cut": false,
    "transport_km": 200,
    "notes": "Megalithic ashlar granite blocks 60t+. Precision fitted."
  },
  {
    "name": "Luxor / Karnak",
    "lat": 25.719,
    "lon": 32.657,
    "region": "Egypt",
    "masonry": 4,
    "max_tons": 323,
    "mohs": 7,
    "precision": 3,
    "rock_cut": false,
    "transport_km": 200,
    "notes": "Ashlar. 323t granite obelisk quarried 200km, erected."
  },
  {
    "name": "Colossi of Memnon",
    "lat": 25.721,
    "lon": 32.611,
    "region": "Egypt",
    "masonry": 4,
    "max_tons": 720,
    "mohs": 7,
    "precision": 2,
    "rock_cut": false,
    "transport_km": 675,
    "notes": "720t quartzite statues. Shaped, transported 675km. Single pieces."
  },
  {
    "name": "Abu Simbel",
    "lat": 22.336,
    "lon": 31.626,
    "region": "Egypt",
    "masonry": 4,
    "max_tons": 0,
    "mohs": 4,
    "precision": 3,
    "rock_cut": true,
    "transport_km": 0,
    "notes": "Rock-cut temple with ashlar-quality carved interiors."
  },
  {
    "name": "Nabta Playa",
    "lat": 22.51,
    "lon": 30.72,
    "region": "Egypt",
    "masonry": 1,
    "max_tons": 5,
    "mohs": 5,
    "precision": 0,
    "rock_cut": false,
    "transport_km": 1,
    "notes": "Small rough stone circle."
  },
  {
    "name": "Unfinished Obelisk (Aswan)",
    "lat": 24.077,
    "lon": 32.899,
    "region": "Egypt",
    "masonry": 4,
    "max_tons": 1200,
    "mohs": 7,
    "precision": 3,
    "rock_cut": true,
    "transport_km": 0,
    "notes": "1200t granite. Partially shaped in quarry. Never detached."
  },
  {
    "name": "Gobekli Tepe",
    "lat": 37.223,
    "lon": 38.923,
    "region": "Turkey",
    "masonry": 2,
    "max_tons": 50,
    "mohs": 3,
    "precision": 2,
    "rock_cut": false,
    "transport_km": 0.5,
    "notes": "Cyclopean T-pillars with relief carving. Not precision-fitted."
  },
  {
    "name": "Karahan Tepe",
    "lat": 37.058,
    "lon": 39.841,
    "region": "Turkey",
    "masonry": 2,
    "max_tons": 15,
    "mohs": 3,
    "precision": 2,
    "rock_cut": false,
    "transport_km": 0.5,
    "notes": "Similar to Gobekli. Carved chambers. Cyclopean scale."
  },
  {
    "name": "Derinkuyu",
    "lat": 38.375,
    "lon": 34.734,
    "region": "Turkey",
    "masonry": 2,
    "max_tons": 0,
    "mohs": 2,
    "precision": 2,
    "rock_cut": true,
    "transport_km": 0,
    "notes": "Underground city carved from tuff."
  },
  {
    "name": "Nemrut Dag",
    "lat": 37.981,
    "lon": 38.741,
    "region": "Turkey",
    "masonry": 2,
    "max_tons": 50,
    "mohs": 3,
    "precision": 2,
    "rock_cut": false,
    "transport_km": 0,
    "notes": "Colossal carved limestone statues. Not precision-fitted."
  },
  {
    "name": "Mycenae",
    "lat": 37.731,
    "lon": 22.757,
    "region": "Europe",
    "masonry": 3,
    "max_tons": 120,
    "mohs": 3,
    "precision": 3,
    "rock_cut": false,
    "transport_km": 5,
    "notes": "Cyclopean walls + polygonal Lion Gate + ashlar Treasury of Atreus 120t lintel."
  },
  {
    "name": "Knossos",
    "lat": 35.298,
    "lon": 25.163,
    "region": "Europe",
    "masonry": 4,
    "max_tons": 20,
    "mohs": 3,
    "precision": 2,
    "rock_cut": false,
    "transport_km": 5,
    "notes": "Multi-story ashlar palace."
  },
  {
    "name": "Parthenon",
    "lat": 37.97,
    "lon": 23.73,
    "region": "Europe",
    "masonry": 4,
    "max_tons": 10,
    "mohs": 4,
    "precision": 3,
    "rock_cut": false,
    "transport_km": 15,
    "notes": "Ashlar marble temple. Documented Greek methods."
  },
  {
    "name": "Hattusa",
    "lat": 40.02,
    "lon": 34.62,
    "region": "Europe",
    "masonry": 2,
    "max_tons": 20,
    "mohs": 3,
    "precision": 2,
    "rock_cut": false,
    "transport_km": 5,
    "notes": "Cyclopean stone walls, Lion Gate."
  },
  {
    "name": "Malta temples",
    "lat": 35.827,
    "lon": 14.442,
    "region": "Europe",
    "masonry": 2,
    "max_tons": 57,
    "mohs": 3,
    "precision": 2,
    "rock_cut": false,
    "transport_km": 1,
    "notes": "Oldest freestanding structures. 57t block. Cyclopean limestone."
  },
  {
    "name": "Ggantija",
    "lat": 36.049,
    "lon": 14.269,
    "region": "Europe",
    "masonry": 2,
    "max_tons": 50,
    "mohs": 3,
    "precision": 2,
    "rock_cut": false,
    "transport_km": 1,
    "notes": "Oldest freestanding buildings. 50t blocks. Cyclopean."
  },
  {
    "name": "Tarxien Temples",
    "lat": 35.869,
    "lon": 14.512,
    "region": "Europe",
    "masonry": 2,
    "max_tons": 20,
    "mohs": 3,
    "precision": 2,
    "rock_cut": false,
    "transport_km": 1,
    "notes": "Maltese megalithic temple. Decorated cyclopean."
  },
  {
    "name": "Carnac Stones",
    "lat": 47.593,
    "lon": -3.08,
    "region": "Europe",
    "masonry": 1,
    "max_tons": 20,
    "mohs": 6,
    "precision": 0,
    "rock_cut": false,
    "transport_km": 5,
    "notes": "3000+ rough standing stones. Unworked."
  },
  {
    "name": "Locmariaquer Grand Menhir",
    "lat": 47.571,
    "lon": -2.95,
    "region": "Europe",
    "masonry": 1,
    "max_tons": 330,
    "mohs": 6,
    "precision": 0,
    "rock_cut": false,
    "transport_km": 10,
    "notes": "330t single rough menhir erected."
  },
  {
    "name": "Stonehenge",
    "lat": 51.179,
    "lon": -1.826,
    "region": "Europe",
    "masonry": 3,
    "max_tons": 40,
    "mohs": 5,
    "precision": 2,
    "rock_cut": false,
    "transport_km": 30,
    "notes": "Sarsens shaped with mortise-and-tenon. Polygonal jointing."
  },
  {
    "name": "Newgrange",
    "lat": 53.695,
    "lon": -6.475,
    "region": "Europe",
    "masonry": 2,
    "max_tons": 5,
    "mohs": 5,
    "precision": 1,
    "rock_cut": false,
    "transport_km": 5,
    "notes": "Passage tomb. Carved kerbstones. Cyclopean chamber."
  },
  {
    "name": "Avebury",
    "lat": 51.429,
    "lon": -1.854,
    "region": "Europe",
    "masonry": 1,
    "max_tons": 40,
    "mohs": 5,
    "precision": 0,
    "rock_cut": false,
    "transport_km": 5,
    "notes": "Rough standing stones in circle. Unworked."
  },
  {
    "name": "Ring of Brodgar",
    "lat": 59.001,
    "lon": -3.23,
    "region": "Europe",
    "masonry": 1,
    "max_tons": 10,
    "mohs": 5,
    "precision": 0,
    "rock_cut": false,
    "transport_km": 2,
    "notes": "Rough stone circle."
  },
  {
    "name": "Callanish Stones",
    "lat": 58.197,
    "lon": -6.744,
    "region": "Europe",
    "masonry": 1,
    "max_tons": 5,
    "mohs": 7,
    "precision": 0,
    "rock_cut": false,
    "transport_km": 1,
    "notes": "Rough standing stones. Hard gneiss but unworked."
  },
  {
    "name": "Brownshill Dolmen",
    "lat": 52.83,
    "lon": -6.82,
    "region": "Europe",
    "masonry": 1,
    "max_tons": 100,
    "mohs": 6,
    "precision": 0,
    "rock_cut": false,
    "transport_km": 2,
    "notes": "100t capstone. Rough. Placed on uprights."
  },
  {
    "name": "Dolmen of Menga",
    "lat": 37.024,
    "lon": -4.548,
    "region": "Europe",
    "masonry": 1,
    "max_tons": 180,
    "mohs": 5,
    "precision": 0,
    "rock_cut": false,
    "transport_km": 1,
    "notes": "180t capstone. Rough. Dolmen."
  },
  {
    "name": "Maeshowe",
    "lat": 58.996,
    "lon": -3.188,
    "region": "Europe",
    "masonry": 2,
    "max_tons": 30,
    "mohs": 5,
    "precision": 2,
    "rock_cut": false,
    "transport_km": 2,
    "notes": "Chambered cairn. Shaped flagstones fitted. Cyclopean."
  },
  {
    "name": "Mausoleum of Theodoric",
    "lat": 44.42,
    "lon": 12.2,
    "region": "Europe",
    "masonry": 4,
    "max_tons": 230,
    "mohs": 4,
    "precision": 3,
    "rock_cut": false,
    "transport_km": 300,
    "notes": "230t single-piece ashlar roof. 520 CE. Documented."
  },
  {
    "name": "Angkor Wat",
    "lat": 13.413,
    "lon": 103.867,
    "region": "SE Asia",
    "masonry": 4,
    "max_tons": 5,
    "mohs": 4,
    "precision": 3,
    "rock_cut": false,
    "transport_km": 40,
    "notes": "5-10M sandstone ashlar blocks. Largest religious structure."
  },
  {
    "name": "Angkor Thom",
    "lat": 13.441,
    "lon": 103.858,
    "region": "SE Asia",
    "masonry": 4,
    "max_tons": 5,
    "mohs": 4,
    "precision": 2,
    "rock_cut": false,
    "transport_km": 40,
    "notes": "Walled city with ashlar Bayon temple."
  },
  {
    "name": "Gunung Padang",
    "lat": -6.994,
    "lon": 107.056,
    "region": "SE Asia",
    "masonry": 1,
    "max_tons": 5,
    "mohs": 7,
    "precision": 0,
    "rock_cut": false,
    "transport_km": 0,
    "notes": "Columnar basalt possibly arranged. Debated."
  },
  {
    "name": "Plain of Jars",
    "lat": 19.46,
    "lon": 103.16,
    "region": "SE Asia",
    "masonry": 2,
    "max_tons": 14,
    "mohs": 4,
    "precision": 1,
    "rock_cut": false,
    "transport_km": 5,
    "notes": "Carved stone jars. Shaped but not fitted."
  },
  {
    "name": "Borobudur",
    "lat": -7.61,
    "lon": 110.2,
    "region": "SE Asia",
    "masonry": 4,
    "max_tons": 2,
    "mohs": 7,
    "precision": 2,
    "rock_cut": false,
    "transport_km": 5,
    "notes": "2M andesite ashlar blocks. Fitted. Small individual blocks."
  },
  {
    "name": "Prambanan",
    "lat": -7.75,
    "lon": 110.49,
    "region": "SE Asia",
    "masonry": 4,
    "max_tons": 2,
    "mohs": 7,
    "precision": 2,
    "rock_cut": false,
    "transport_km": 5,
    "notes": "Hindu ashlar temple. Fitted stone."
  },
  {
    "name": "Mohenjo-daro",
    "lat": 27.324,
    "lon": 68.139,
    "region": "S. Asia",
    "masonry": 4,
    "max_tons": 5,
    "mohs": 3,
    "precision": 2,
    "rock_cut": false,
    "transport_km": 1,
    "notes": "Fired brick ashlar city. Grid plan. Not stone but precision brickwork."
  },
  {
    "name": "Sigiriya",
    "lat": 7.957,
    "lon": 80.76,
    "region": "S. Asia",
    "masonry": 2,
    "max_tons": 10,
    "mohs": 5,
    "precision": 2,
    "rock_cut": false,
    "transport_km": 1,
    "notes": "Rock fortress. Cyclopean stone fitted around natural rock."
  },
  {
    "name": "Ellora (Kailasa)",
    "lat": 20.023,
    "lon": 75.179,
    "region": "India",
    "masonry": 4,
    "max_tons": 0,
    "mohs": 7,
    "precision": 3,
    "rock_cut": true,
    "transport_km": 0,
    "notes": "200,000t carved top-down from basalt. Ashlar-quality surfaces."
  },
  {
    "name": "Konark Sun Temple",
    "lat": 19.89,
    "lon": 86.09,
    "region": "India",
    "masonry": 4,
    "max_tons": 20,
    "mohs": 5,
    "precision": 3,
    "rock_cut": false,
    "transport_km": 10,
    "notes": "Ashlar stone chariot with carved wheels."
  },
  {
    "name": "Mahabalipuram",
    "lat": 12.62,
    "lon": 80.19,
    "region": "India",
    "masonry": 4,
    "max_tons": 10,
    "mohs": 6,
    "precision": 3,
    "rock_cut": true,
    "transport_km": 0,
    "notes": "Monolithic granite rathas. Ashlar-quality carved in place."
  },
  {
    "name": "Brihadeeswarar Temple",
    "lat": 10.783,
    "lon": 79.132,
    "region": "India",
    "masonry": 4,
    "max_tons": 80,
    "mohs": 7,
    "precision": 3,
    "rock_cut": false,
    "transport_km": 50,
    "notes": "Ashlar granite. 80t capstone lifted 66m. Documented Chola."
  },
  {
    "name": "Ajanta Caves",
    "lat": 20.552,
    "lon": 75.7,
    "region": "India",
    "masonry": 2,
    "max_tons": 0,
    "mohs": 7,
    "precision": 2,
    "rock_cut": true,
    "transport_km": 0,
    "notes": "Rock-cut caves. Cyclopean-scale carving."
  },
  {
    "name": "Elephanta Caves",
    "lat": 18.963,
    "lon": 72.931,
    "region": "India",
    "masonry": 2,
    "max_tons": 0,
    "mohs": 7,
    "precision": 2,
    "rock_cut": true,
    "transport_km": 0,
    "notes": "Rock-cut caves. Cyclopean-scale basalt carving."
  },
  {
    "name": "Hampi",
    "lat": 15.335,
    "lon": 76.46,
    "region": "India",
    "masonry": 4,
    "max_tons": 20,
    "mohs": 7,
    "precision": 2,
    "rock_cut": false,
    "transport_km": 5,
    "notes": "Ashlar granite temple complex."
  },
  {
    "name": "Gommateshwara",
    "lat": 12.854,
    "lon": 76.485,
    "region": "India",
    "masonry": 4,
    "max_tons": 600,
    "mohs": 7,
    "precision": 3,
    "rock_cut": true,
    "transport_km": 0,
    "notes": "57-foot monolithic granite statue. Carved in place."
  },
  {
    "name": "Persepolis",
    "lat": 29.935,
    "lon": 52.891,
    "region": "Persia",
    "masonry": 4,
    "max_tons": 30,
    "mohs": 3,
    "precision": 3,
    "rock_cut": false,
    "transport_km": 10,
    "notes": "Ashlar monumental terrace. Documented Achaemenid."
  },
  {
    "name": "Sanxingdui",
    "lat": 31.0,
    "lon": 104.2,
    "region": "E. Asia",
    "masonry": 0,
    "max_tons": 5,
    "mohs": 0,
    "precision": 0,
    "rock_cut": false,
    "transport_km": 0,
    "notes": "Bronze masks. Not stone construction."
  },
  {
    "name": "Longyou Caves",
    "lat": 29.04,
    "lon": 119.17,
    "region": "E. Asia",
    "masonry": 2,
    "max_tons": 0,
    "mohs": 4,
    "precision": 2,
    "rock_cut": true,
    "transport_km": 0,
    "notes": "Carved cave system. Cyclopean-scale sandstone."
  },
  {
    "name": "Dolmen of Ganghwa",
    "lat": 37.73,
    "lon": 126.43,
    "region": "E. Asia",
    "masonry": 1,
    "max_tons": 300,
    "mohs": 6,
    "precision": 0,
    "rock_cut": false,
    "transport_km": 5,
    "notes": "300t capstone. Rough, unworked."
  },
  {
    "name": "Gochang Dolmen",
    "lat": 35.435,
    "lon": 126.919,
    "region": "E. Asia",
    "masonry": 1,
    "max_tons": 200,
    "mohs": 6,
    "precision": 0,
    "rock_cut": false,
    "transport_km": 5,
    "notes": "200t capstone. Rough."
  },
  {
    "name": "Ishibutai Kofun",
    "lat": 34.47,
    "lon": 135.83,
    "region": "E. Asia",
    "masonry": 1,
    "max_tons": 75,
    "mohs": 6,
    "precision": 0,
    "rock_cut": false,
    "transport_km": 3,
    "notes": "75t stone tomb chamber. Rough."
  },
  {
    "name": "Yangshan Quarry",
    "lat": 32.068,
    "lon": 119.001,
    "region": "E. Asia",
    "masonry": 4,
    "max_tons": 16250,
    "mohs": 7,
    "precision": 2,
    "rock_cut": true,
    "transport_km": 0,
    "notes": "Partially shaped granite. Never moved. In situ."
  },
  {
    "name": "Easter Island",
    "lat": -27.113,
    "lon": -109.35,
    "region": "Pacific",
    "masonry": 2,
    "max_tons": 82,
    "mohs": 3,
    "precision": 2,
    "rock_cut": false,
    "transport_km": 15,
    "notes": "Moai carved from tuff. Transported. Cyclopean scale."
  },
  {
    "name": "Nan Madol",
    "lat": 6.844,
    "lon": 158.336,
    "region": "Pacific",
    "masonry": 1,
    "max_tons": 50,
    "mohs": 7,
    "precision": 0,
    "rock_cut": false,
    "transport_km": 30,
    "notes": "Rough-stacked columnar basalt. 750,000t to islands."
  },
  {
    "name": "Tonga Trilithon",
    "lat": -21.14,
    "lon": -175.05,
    "region": "Pacific",
    "masonry": 2,
    "max_tons": 40,
    "mohs": 3,
    "precision": 2,
    "rock_cut": false,
    "transport_km": 2,
    "notes": "Coral trilithon. Shaped and fitted."
  },
  {
    "name": "Chichen Itza",
    "lat": 20.68,
    "lon": -88.57,
    "region": "Mesoamerica",
    "masonry": 4,
    "max_tons": 15,
    "mohs": 3,
    "precision": 2,
    "rock_cut": false,
    "transport_km": 5,
    "notes": "Ashlar limestone pyramid."
  },
  {
    "name": "Tikal",
    "lat": 17.22,
    "lon": -89.62,
    "region": "Mesoamerica",
    "masonry": 4,
    "max_tons": 15,
    "mohs": 3,
    "precision": 2,
    "rock_cut": false,
    "transport_km": 5,
    "notes": "Ashlar limestone pyramids."
  },
  {
    "name": "Monte Alban",
    "lat": 17.04,
    "lon": -96.77,
    "region": "Mesoamerica",
    "masonry": 2,
    "max_tons": 10,
    "mohs": 3,
    "precision": 1,
    "rock_cut": false,
    "transport_km": 5,
    "notes": "Zapotec stone platforms. Cyclopean."
  },
  {
    "name": "Palenque",
    "lat": 17.48,
    "lon": -92.05,
    "region": "Mesoamerica",
    "masonry": 4,
    "max_tons": 15,
    "mohs": 3,
    "precision": 2,
    "rock_cut": false,
    "transport_km": 5,
    "notes": "Ashlar limestone temple."
  },
  {
    "name": "Copan",
    "lat": 14.84,
    "lon": -89.14,
    "region": "Mesoamerica",
    "masonry": 4,
    "max_tons": 10,
    "mohs": 3,
    "precision": 2,
    "rock_cut": false,
    "transport_km": 5,
    "notes": "Ashlar Maya stone ruins."
  },
  {
    "name": "Uxmal",
    "lat": 20.36,
    "lon": -89.77,
    "region": "Mesoamerica",
    "masonry": 4,
    "max_tons": 10,
    "mohs": 3,
    "precision": 2,
    "rock_cut": false,
    "transport_km": 5,
    "notes": "Ashlar Maya pyramid."
  },
  {
    "name": "Teotihuacan",
    "lat": 19.693,
    "lon": -98.844,
    "region": "Mesoamerica",
    "masonry": 4,
    "max_tons": 22,
    "mohs": 5,
    "precision": 2,
    "rock_cut": false,
    "transport_km": 5,
    "notes": "Ashlar. Pyramid of Sun."
  },
  {
    "name": "Olmec Head (La Venta)",
    "lat": 18.104,
    "lon": -94.031,
    "region": "Mesoamerica",
    "masonry": 2,
    "max_tons": 50,
    "mohs": 7,
    "precision": 2,
    "rock_cut": false,
    "transport_km": 150,
    "notes": "Carved basalt heads. Cyclopean. Transported 150km."
  },
  {
    "name": "Olmec Head (San Lorenzo)",
    "lat": 17.755,
    "lon": -94.762,
    "region": "Mesoamerica",
    "masonry": 2,
    "max_tons": 50,
    "mohs": 7,
    "precision": 2,
    "rock_cut": false,
    "transport_km": 80,
    "notes": "Carved basalt heads. Cyclopean. Transported 80km."
  },
  {
    "name": "Tula",
    "lat": 20.065,
    "lon": -99.34,
    "region": "Mesoamerica",
    "masonry": 4,
    "max_tons": 10,
    "mohs": 7,
    "precision": 2,
    "rock_cut": false,
    "transport_km": 10,
    "notes": "Toltec ashlar warrior columns."
  },
  {
    "name": "Great Zimbabwe",
    "lat": -20.27,
    "lon": 30.93,
    "region": "Africa",
    "masonry": 1,
    "max_tons": 1,
    "mohs": 6,
    "precision": 0,
    "rock_cut": false,
    "transport_km": 1,
    "notes": "Dry-stacked rough blocks. Rubble masonry."
  },
  {
    "name": "Meroe Pyramids",
    "lat": 16.94,
    "lon": 33.75,
    "region": "Africa",
    "masonry": 4,
    "max_tons": 15,
    "mohs": 4,
    "precision": 2,
    "rock_cut": false,
    "transport_km": 5,
    "notes": "Nubian ashlar sandstone pyramids."
  },
  {
    "name": "Axum Obelisks",
    "lat": 14.131,
    "lon": 38.719,
    "region": "E. Africa",
    "masonry": 2,
    "max_tons": 160,
    "mohs": 6,
    "precision": 2,
    "rock_cut": false,
    "transport_km": 4,
    "notes": "Shaped carved stelae. Cyclopean scale. Single pieces."
  },
  {
    "name": "Great Stele of Axum",
    "lat": 14.132,
    "lon": 38.723,
    "region": "E. Africa",
    "masonry": 2,
    "max_tons": 520,
    "mohs": 6,
    "precision": 2,
    "rock_cut": false,
    "transport_km": 4,
    "notes": "520t shaped stele. Never erected."
  },
  {
    "name": "Lalibela",
    "lat": 12.032,
    "lon": 39.043,
    "region": "E. Africa",
    "masonry": 3,
    "max_tons": 0,
    "mohs": 5,
    "precision": 3,
    "rock_cut": true,
    "transport_km": 0,
    "notes": "Rock-hewn churches. Polygonal-quality carved surfaces."
  },
  {
    "name": "Wassu Stone Circles",
    "lat": 13.69,
    "lon": -14.873,
    "region": "W. Africa",
    "masonry": 1,
    "max_tons": 10,
    "mohs": 5,
    "precision": 0,
    "rock_cut": false,
    "transport_km": 5,
    "notes": "Rough stone circles."
  },
  {
    "name": "San Agustin",
    "lat": 1.883,
    "lon": -76.283,
    "region": "S. America",
    "masonry": 2,
    "max_tons": 5,
    "mohs": 5,
    "precision": 1,
    "rock_cut": false,
    "transport_km": 2,
    "notes": "Carved stone statues. Cyclopean."
  },
  {
    "name": "Cahokia Mounds",
    "lat": 38.655,
    "lon": -90.061,
    "region": "N. America",
    "masonry": 0,
    "max_tons": 0,
    "mohs": 0,
    "precision": 0,
    "rock_cut": false,
    "transport_km": 0,
    "notes": "Earthen mounds. Not stone."
  },
  {
    "name": "Zorats Karer",
    "lat": 39.551,
    "lon": 46.029,
    "region": "Armenia",
    "masonry": 1,
    "max_tons": 10,
    "mohs": 7,
    "precision": 0,
    "rock_cut": false,
    "transport_km": 2,
    "notes": "Rough standing stones with holes."
  }
]